{
  "DTW": {"icao": "KDTW", "name": "Detroit Metropolitan Wayne County Airport", "city": "Detroit", "state": "MI", "lat": 42.2124, "lon": -83.3534, "tz": "America/Detroit"},
  "SLC": {"icao": "KSLC", "name": "Salt Lake City International Airport", "city": "Salt Lake City", "state": "UT", "lat": 40.7884, "lon": -111.9778, "tz": "America/Denver"},
  "PHX": {"icao": "KPHX", "name": "Phoenix Sky Harbor International Airport", "city": "Phoenix", "state": "AZ", "lat": 33.4373, "lon": -112.0078, "tz": "America/Phoenix"},
  "OKC": {"icao": "KOKC", "name": "Will Rogers World Airport", "city": "Oklahoma City", "state": "OK", "lat": 35.3931, "lon": -97.6007, "tz": "America/Chicago"},
  "ORD": {"icao": "KORD", "name": "O'Hare International Airport", "city": "Chicago", "state": "IL", "lat": 41.9742, "lon": -87.9073, "tz": "America/Chicago"},
  "FNT": {"icao": "KFNT", "name": "Bishop International Airport", "city": "Flint", "state": "MI", "lat": 42.9655, "lon": -83.7436, "tz": "America/Detroit"},
  "MKE": {"icao": "KMKE", "name": "General Mitchell International Airport", "city": "Milwaukee", "state": "WI", "lat": 42.9472, "lon": -87.8966, "tz": "America/Chicago"},
  "MSP": {"icao": "KMSP", "name": "Minneapolis-Saint Paul International Airport", "city": "Minneapolis", "state": "MN", "lat": 44.8820, "lon": -93.2218, "tz": "America/Chicago"},
  "PSP": {"icao": "KPSP", "name": "Palm Springs International Airport", "city": "Palm Springs", "state": "CA", "lat": 33.8297, "lon": -116.5067, "tz": "America/Los_Angeles"},
  "CID": {"icao": "KCID", "name": "The Eastern Iowa Airport", "city": "Cedar Rapids", "state": "IA", "lat": 41.8847, "lon": -91.7108, "tz": "America/Chicago"},
  "BOI": {"icao": "KBOI", "name": "Boise Airport", "city": "Boise", "state": "ID", "lat": 43.5644, "lon": -116.2228, "tz": "America/Boise"},
  "SFO": {"icao": "KSFO", "name": "San Francisco International Airport", "city": "San Francisco", "state": "CA", "lat": 37.6213, "lon": -122.3790, "tz": "America/Los_Angeles"},
  "LAX": {"icao": "KLAX", "name": "Los Angeles International Airport", "city": "Los Angeles", "state": "CA", "lat": 33.9425, "lon": -118.4081, "tz": "America/Los_Angeles"},
  "JFK": {"icao": "KJFK", "name": "John F. Kennedy International Airport", "city": "New York", "state": "NY", "lat": 40.6413, "lon": -73.7781, "tz": "America/New_York"},
  "ATL": {"icao": "KATL", "name": "Hartsfield-Jackson Atlanta International Airport", "city": "Atlanta", "state": "GA", "lat": 33.6407, "lon": -84.4277, "tz": "America/New_York"},
  "DFW": {"icao": "KDFW", "name": "Dallas/Fort Worth International Airport", "city": "Dallas-Fort Worth", "state": "TX", "lat": 32.8998, "lon": -97.0403, "tz": "America/Chicago"},
  "DEN": {"icao": "KDEN", "name": "Denver International Airport", "city": "Denver", "state": "CO", "lat": 39.8561, "lon": -104.6737, "tz": "America/Denver"},
  "SEA": {"icao": "KSEA", "name": "Seattle-Tacoma International Airport", "city": "Seattle", "state": "WA", "lat": 47.4502, "lon": -122.3088, "tz": "America/Los_Angeles"},
  "SAN": {"icao": "KSAN", "name": "San Diego International Airport", "city": "San Diego", "state": "CA", "lat": 32.7336, "lon": -117.1897, "tz": "America/Los_Angeles"},
  "LAS": {"icao": "KLAS", "name": "Harry Reid International Airport", "city": "Las Vegas", "state": "NV", "lat": 36.0840, "lon": -115.1537, "tz": "America/Los_Angeles"},
  "MCO": {"icao": "KMCO", "name": "Orlando International Airport", "city": "Orlando", "state": "FL", "lat": 28.4312, "lon": -81.3081, "tz": "America/New_York"},
  "MIA": {"icao": "KMIA", "name": "Miami International Airport", "city": "Miami", "state": "FL", "lat": 25.7959, "lon": -80.2870, "tz": "America/New_York"},
  "BOS": {"icao": "KBOS", "name": "Boston Logan International Airport", "city": "Boston", "state": "MA", "lat": 42.3656, "lon": -71.0096, "tz": "America/New_York"},
  "IAH": {"icao": "KIAH", "name": "George Bush Intercontinental Airport", "city": "Houston", "state": "TX", "lat": 29.9902, "lon": -95.3368, "tz": "America/Chicago"},
  "EWR": {"icao": "KEWR", "name": "Newark Liberty International Airport", "city": "Newark", "state": "NJ", "lat": 40.6895, "lon": -74.1745, "tz": "America/New_York"},
  "CLT": {"icao": "KCLT", "name": "Charlotte Douglas International Airport", "city": "Charlotte", "state": "NC", "lat": 35.2140, "lon": -80.9431, "tz": "America/New_York"},
  "MSY": {"icao": "KMSY", "name": "Louis Armstrong New Orleans International Airport", "city": "New Orleans", "state": "LA", "lat": 29.9934, "lon": -90.2580, "tz": "America/Chicago"},
  "AUS": {"icao": "KAUS", "name": "Austin-Bergstrom International Airport", "city": "Austin", "state": "TX", "lat": 30.1975, "lon": -97.6664, "tz": "America/Chicago"},
  "RDU": {"icao": "KRDU", "name": "Raleigh-Durham International Airport", "city": "Raleigh", "state": "NC", "lat": 35.8801, "lon": -78.7880, "tz": "America/New_York"},
  "PIT": {"icao": "KPIT", "name": "Pittsburgh International Airport", "city": "Pittsburgh", "state": "PA", "lat": 40.4915, "lon": -80.2329, "tz": "America/New_York"},
  "CVG": {"icao": "KCVG", "name": "Cincinnati/Northern Kentucky International Airport", "city": "Cincinnati", "state": "KY", "lat": 39.0488, "lon": -84.6678, "tz": "America/New_York"},
  "IND": {"icao": "KIND", "name": "Indianapolis International Airport", "city": "Indianapolis", "state": "IN", "lat": 39.7173, "lon": -86.2944, "tz": "America/Indiana/Indianapolis"},
  "CMH": {"icao": "KCMH", "name": "John Glenn Columbus International Airport", "city": "Columbus", "state": "OH", "lat": 39.9980, "lon": -82.8919, "tz": "America/New_York"},
  "BNA": {"icao": "KBNA", "name": "Nashville International Airport", "city": "Nashville", "state": "TN", "lat": 36.1263, "lon": -86.6774, "tz": "America/Chicago"},
  "MCI": {"icao": "KMCI", "name": "Kansas City International Airport", "city": "Kansas City", "state": "MO", "lat": 39.2976, "lon": -94.7139, "tz": "America/Chicago"},
  "STL": {"icao": "KSTL", "name": "St. Louis Lambert International Airport", "city": "St. Louis", "state": "MO", "lat": 38.7487, "lon": -90.3700, "tz": "America/Chicago"},
  "TPA": {"icao": "KTPA", "name": "Tampa International Airport", "city": "Tampa", "state": "FL", "lat": 27.9755, "lon": -82.5332, "tz": "America/New_York"},
  "PDX": {"icao": "KPDX", "name": "Portland International Airport", "city": "Portland", "state": "OR", "lat": 45.5898, "lon": -122.5951, "tz": "America/Los_Angeles"},
  "ABQ": {"icao": "KABQ", "name": "Albuquerque International Sunport", "city": "Albuquerque", "state": "NM", "lat": 35.0402, "lon": -106.6094, "tz": "America/Denver"},
  "SJC": {"icao": "KSJC", "name": "San Jose International Airport", "city": "San Jose", "state": "CA", "lat": 37.3626, "lon": -121.9291, "tz": "America/Los_Angeles"},
  "SMF": {"icao": "KSMF", "name": "Sacramento International Airport", "city": "Sacramento", "state": "CA", "lat": 38.6954, "lon": -121.5908, "tz": "America/Los_Angeles"},
  "ONT": {"icao": "KONT", "name": "Ontario International Airport", "city": "Ontario", "state": "CA", "lat": 34.0560, "lon": -117.6012, "tz": "America/Los_Angeles"},
  "BUR": {"icao": "KBUR", "name": "Hollywood Burbank Airport", "city": "Burbank", "state": "CA", "lat": 34.1975, "lon": -118.3587, "tz": "America/Los_Angeles"},
  "OAK": {"icao": "KOAK", "name": "Oakland International Airport", "city": "Oakland", "state": "CA", "lat": 37.7213, "lon": -122.2208, "tz": "America/Los_Angeles"},
  "IAD": {"icao": "KIAD", "name": "Washington Dulles International Airport", "city": "Dulles", "state": "VA", "lat": 38.9531, "lon": -77.4565, "tz": "America/New_York"},
  "DCA": {"icao": "KDCA", "name": "Ronald Reagan Washington National Airport", "city": "Arlington", "state": "VA", "lat": 38.8512, "lon": -77.0402, "tz": "America/New_York"},
  "BWI": {"icao": "KBWI", "name": "Baltimore/Washington International Airport", "city": "Baltimore", "state": "MD", "lat": 39.1754, "lon": -76.6683, "tz": "America/New_York"},
  "PHL": {"icao": "KPHL", "name": "Philadelphia International Airport", "city": "Philadelphia", "state": "PA", "lat": 39.8721, "lon": -75.2411, "tz": "America/New_York"},
  "HNL": {"icao": "PHNL", "name": "Daniel K. Inouye International Airport", "city": "Honolulu", "state": "HI", "lat": 21.3187, "lon": -157.9225, "tz": "Pacific/Honolulu"},
  "ANC": {"icao": "PANC", "name": "Ted Stevens Anchorage International Airport", "city": "Anchorage", "state": "AK", "lat": 61.1743, "lon": -149.9962, "tz": "America/Anchorage"},
  "FAI": {"icao": "PAFA", "name": "Fairbanks International Airport", "city": "Fairbanks", "state": "AK", "lat": 64.8151, "lon": -147.8561, "tz": "America/Anchorage"},
  "GEG": {"icao": "KGEG", "name": "Spokane International Airport", "city": "Spokane", "state": "WA", "lat": 47.6199, "lon": -117.5338, "tz": "America/Los_Angeles"},
  "BIL": {"icao": "KBIL", "name": "Billings Logan International Airport", "city": "Billings", "state": "MT", "lat": 45.8077, "lon": -108.5430, "tz": "America/Denver"},
  "RAP": {"icao": "KRAP", "name": "Rapid City Regional Airport", "city": "Rapid City", "state": "SD", "lat": 44.0453, "lon": -103.0574, "tz": "America/Denver"},
  "FSD": {"icao": "KFSD", "name": "Sioux Falls Regional Airport", "city": "Sioux Falls", "state": "SD", "lat": 43.5820, "lon": -96.7419, "tz": "America/Chicago"},
  "GRR": {"icao": "KGRR", "name": "Gerald R. Ford International Airport", "city": "Grand Rapids", "state": "MI", "lat": 42.8808, "lon": -85.5228, "tz": "America/Detroit"},
  "LAN": {"icao": "KLAN", "name": "Capital Region International Airport", "city": "Lansing", "state": "MI", "lat": 42.7787, "lon": -84.5874, "tz": "America/Detroit"},
  "TVC": {"icao": "KTVC", "name": "Cherry Capital Airport", "city": "Traverse City", "state": "MI", "lat": 44.7413, "lon": -85.5822, "tz": "America/Detroit"},
  "MBS": {"icao": "KMBS", "name": "MBS International Airport", "city": "Saginaw", "state": "MI", "lat": 43.5329, "lon": -84.0796, "tz": "America/Detroit"},
  "SGF": {"icao": "KSGF", "name": "Springfield-Branson National Airport", "city": "Springfield", "state": "MO", "lat": 37.2457, "lon": -93.3886, "tz": "America/Chicago"},
  "TUL": {"icao": "KTUL", "name": "Tulsa International Airport", "city": "Tulsa", "state": "OK", "lat": 36.1984, "lon": -95.8881, "tz": "America/Chicago"},
  "OMA": {"icao": "KOMA", "name": "Eppley Airfield", "city": "Omaha", "state": "NE", "lat": 41.3032, "lon": -95.8941, "tz": "America/Chicago"},
  "MDW": {"icao": "KMDW", "name": "Chicago Midway International Airport", "city": "Chicago", "state": "IL", "lat": 41.7868, "lon": -87.7522, "tz": "America/Chicago"},
  "SAT": {"icao": "KSAT", "name": "San Antonio International Airport", "city": "San Antonio", "state": "TX", "lat": 29.5337, "lon": -98.4698, "tz": "America/Chicago"},
  "JAX": {"icao": "KJAX", "name": "Jacksonville International Airport", "city": "Jacksonville", "state": "FL", "lat": 30.4941, "lon": -81.6879, "tz": "America/New_York"},
  "RNO": {"icao": "KRNO", "name": "Reno-Tahoe International Airport", "city": "Reno", "state": "NV", "lat": 39.4991, "lon": -119.7681, "tz": "America/Los_Angeles"},
  "ELP": {"icao": "KELP", "name": "El Paso International Airport", "city": "El Paso", "state": "TX", "lat": 31.8072, "lon": -106.3778, "tz": "America/Denver"},
  "TUS": {"icao": "KTUS", "name": "Tucson International Airport", "city": "Tucson", "state": "AZ", "lat": 32.1161, "lon": -110.9410, "tz": "America/Phoenix"},
  "SBA": {"icao": "KSBA", "name": "Santa Barbara Airport", "city": "Santa Barbara", "state": "CA", "lat": 34.4262, "lon": -119.8404, "tz": "America/Los_Angeles"},
  "FAT": {"icao": "KFAT", "name": "Fresno Yosemite International Airport", "city": "Fresno", "state": "CA", "lat": 36.7762, "lon": -119.7181, "tz": "America/Los_Angeles"},
  "EUG": {"icao": "KEUG", "name": "Eugene Airport", "city": "Eugene", "state": "OR", "lat": 44.1246, "lon": -123.2119, "tz": "America/Los_Angeles"},
  "MFR": {"icao": "KMFR", "name": "Rogue Valley International Airport", "city": "Medford", "state": "OR", "lat": 42.3742, "lon": -122.8735, "tz": "America/Los_Angeles"},
  "RDM": {"icao": "KRDM", "name": "Redmond Municipal Airport", "city": "Redmond", "state": "OR", "lat": 44.2541, "lon": -121.1500, "tz": "America/Los_Angeles"},
  "BZN": {"icao": "KBZN", "name": "Bozeman Yellowstone International Airport", "city": "Bozeman", "state": "MT", "lat": 45.7775, "lon": -111.1530, "tz": "America/Denver"},
  "MSO": {"icao": "KMSO", "name": "Missoula Montana Airport", "city": "Missoula", "state": "MT", "lat": 46.9163, "lon": -114.0906, "tz": "America/Denver"},
  "FCA": {"icao": "KGPI", "name": "Glacier Park International Airport", "city": "Kalispell", "state": "MT", "lat": 48.3105, "lon": -114.2560, "tz": "America/Denver"},
  "GTF": {"icao": "KGTF", "name": "Great Falls International Airport", "city": "Great Falls", "state": "MT", "lat": 47.4820, "lon": -111.3707, "tz": "America/Denver"},
  "HLN": {"icao": "KHLN", "name": "Helena Regional Airport", "city": "Helena", "state": "MT", "lat": 46.6068, "lon": -111.9827, "tz": "America/Denver"},
  "JAC": {"icao": "KJAC", "name": "Jackson Hole Airport", "city": "Jackson", "state": "WY", "lat": 43.6073, "lon": -110.7378, "tz": "America/Denver"},
  "COS": {"icao": "KCOS", "name": "Colorado Springs Airport", "city": "Colorado Springs", "state": "CO", "lat": 38.8058, "lon": -104.7007, "tz": "America/Denver"},
  "GJT": {"icao": "KGJT", "name": "Grand Junction Regional Airport", "city": "Grand Junction", "state": "CO", "lat": 39.1224, "lon": -108.5267, "tz": "America/Denver"},
  "HDN": {"icao": "KHDN", "name": "Yampa Valley Regional Airport", "city": "Hayden", "state": "CO", "lat": 40.4812, "lon": -107.2177, "tz": "America/Denver"},
  "EGE": {"icao": "KEGE", "name": "Eagle County Regional Airport", "city": "Eagle", "state": "CO", "lat": 39.6427, "lon": -106.9159, "tz": "America/Denver"},
  "ASE": {"icao": "KASE", "name": "Aspen/Pitkin County Airport", "city": "Aspen", "state": "CO", "lat": 39.2232, "lon": -106.8688, "tz": "America/Denver"},
  "DRO": {"icao": "KDRO", "name": "Durango-La Plata County Airport", "city": "Durango", "state": "CO", "lat": 37.1515, "lon": -107.7538, "tz": "America/Denver"},
  "ICT": {"icao": "KICT", "name": "Wichita Dwight D. Eisenhower National Airport", "city": "Wichita", "state": "KS", "lat": 37.6499, "lon": -97.4331, "tz": "America/Chicago"},
  "LIT": {"icao": "KLIT", "name": "Bill and Hillary Clinton National Airport", "city": "Little Rock", "state": "AR", "lat": 34.7294, "lon": -92.2243, "tz": "America/Chicago"},
  "DSM": {"icao": "KDSM", "name": "Des Moines International Airport", "city": "Des Moines", "state": "IA", "lat": 41.5340, "lon": -93.6631, "tz": "America/Chicago"},
  "XNA": {"icao": "KXNA", "name": "Northwest Arkansas National Airport", "city": "Bentonville", "state": "AR", "lat": 36.2819, "lon": -94.3068, "tz": "America/Chicago"},
  "SDF": {"icao": "KSDF", "name": "Louisville International Airport", "city": "Louisville", "state": "KY", "lat": 38.1744, "lon": -85.7360, "tz": "America/Kentucky/Louisville"},
  "DAY": {"icao": "KDAY", "name": "Dayton International Airport", "city": "Dayton", "state": "OH", "lat": 39.9024, "lon": -84.2194, "tz": "America/New_York"},
  "LEX": {"icao": "KLEX", "name": "Blue Grass Airport", "city": "Lexington", "state": "KY", "lat": 38.0365, "lon": -84.6059, "tz": "America/New_York"},
  "CHS": {"icao": "KCHS", "name": "Charleston International Airport", "city": "Charleston", "state": "SC", "lat": 32.8986, "lon": -80.0405, "tz": "America/New_York"},
  "SAV": {"icao": "KSAV", "name": "Savannah/Hilton Head International Airport", "city": "Savannah", "state": "GA", "lat": 32.1276, "lon": -81.2021, "tz": "America/New_York"},
  "GSP": {"icao": "KGSP", "name": "Greenville-Spartanburg International Airport", "city": "Greer", "state": "SC", "lat": 34.8957, "lon": -82.2189, "tz": "America/New_York"},
  "PNS": {"icao": "KPNS", "name": "Pensacola International Airport", "city": "Pensacola", "state": "FL", "lat": 30.4734, "lon": -87.1866, "tz": "America/Chicago"},
  "RSW": {"icao": "KRSW", "name": "Southwest Florida International Airport", "city": "Fort Myers", "state": "FL", "lat": 26.5362, "lon": -81.7552, "tz": "America/New_York"},
  "PBI": {"icao": "KPBI", "name": "Palm Beach International Airport", "city": "West Palm Beach", "state": "FL", "lat": 26.6832, "lon": -80.0956, "tz": "America/New_York"},
  "SRQ": {"icao": "KSRQ", "name": "Sarasota-Bradenton International Airport", "city": "Sarasota", "state": "FL", "lat": 27.3954, "lon": -82.5544, "tz": "America/New_York"},
  "FLL": {"icao": "KFLL", "name": "Fort Lauderdale-Hollywood International Airport", "city": "Fort Lauderdale", "state": "FL", "lat": 26.0726, "lon": -80.1527, "tz": "America/New_York"},
  "BDL": {"icao": "KBDL", "name": "Bradley International Airport", "city": "Hartford", "state": "CT", "lat": 41.9389, "lon": -72.6832, "tz": "America/New_York"},
  "SYR": {"icao": "KSYR", "name": "Syracuse Hancock International Airport", "city": "Syracuse", "state": "NY", "lat": 43.1112, "lon": -76.1063, "tz": "America/New_York"},
  "BUF": {"icao": "KBUF", "name": "Buffalo Niagara International Airport", "city": "Buffalo", "state": "NY", "lat": 42.9405, "lon": -78.7322, "tz": "America/New_York"},
  "ROC": {"icao": "KROC", "name": "Greater Rochester International Airport", "city": "Rochester", "state": "NY", "lat": 43.1189, "lon": -77.6724, "tz": "America/New_York"},
  "ALB": {"icao": "KALB", "name": "Albany International Airport", "city": "Albany", "state": "NY", "lat": 42.7483, "lon": -73.8017, "tz": "America/New_York"},
  "PVD": {"icao": "KPVD", "name": "T.F. Green International Airport", "city": "Providence", "state": "RI", "lat": 41.7326, "lon": -71.4204, "tz": "America/New_York"},
  "MHT": {"icao": "KMHT", "name": "Manchester-Boston Regional Airport", "city": "Manchester", "state": "NH", "lat": 42.9326, "lon": -71.4357, "tz": "America/New_York"},
  "PWM": {"icao": "KPWM", "name": "Portland International Jetport", "city": "Portland", "state": "ME", "lat": 43.6462, "lon": -70.3093, "tz": "America/New_York"},
  "ORF": {"icao": "KORF", "name": "Norfolk International Airport", "city": "Norfolk", "state": "VA", "lat": 36.8946, "lon": -76.2012, "tz": "America/New_York"},
  "RIC": {"icao": "KRIC", "name": "Richmond International Airport", "city": "Richmond", "state": "VA", "lat": 37.5052, "lon": -77.3197, "tz": "America/New_York"},
  "MEM": {"icao": "KMEM", "name": "Memphis International Airport", "city": "Memphis", "state": "TN", "lat": 35.0424, "lon": -89.9767, "tz": "America/Chicago"},
  "TYS": {"icao": "KTYS", "name": "McGhee Tyson Airport", "city": "Knoxville", "state": "TN", "lat": 35.8110, "lon": -83.9940, "tz": "America/New_York"},
  "GSO": {"icao": "KGSO", "name": "Piedmont Triad International Airport", "city": "Greensboro", "state": "NC", "lat": 36.0978, "lon": -79.9373, "tz": "America/New_York"},
  "BHM": {"icao": "KBHM", "name": "Birmingham-Shuttlesworth International Airport", "city": "Birmingham", "state": "AL", "lat": 33.5629, "lon": -86.7535, "tz": "America/Chicago"},
  "HSV": {"icao": "KHSV", "name": "Huntsville International Airport", "city": "Huntsville", "state": "AL", "lat": 34.6372, "lon": -86.7751, "tz": "America/Chicago"},
  "MOB": {"icao": "KMOB", "name": "Mobile Regional Airport", "city": "Mobile", "state": "AL", "lat": 30.6912, "lon": -88.2428, "tz": "America/Chicago"},
  "GPT": {"icao": "KGPT", "name": "Gulfport-Biloxi International Airport", "city": "Gulfport", "state": "MS", "lat": 30.4073, "lon": -89.0701, "tz": "America/Chicago"},
  "JAN": {"icao": "KJAN", "name": "Jackson-Medgar Wiley Evers International Airport", "city": "Jackson", "state": "MS", "lat": 32.3112, "lon": -90.0759, "tz": "America/Chicago"},
  "SHV": {"icao": "KSHV", "name": "Shreveport Regional Airport", "city": "Shreveport", "state": "LA", "lat": 32.4466, "lon": -93.8256, "tz": "America/Chicago"},
  "BTR": {"icao": "KBTR", "name": "Baton Rouge Metropolitan Airport", "city": "Baton Rouge", "state": "LA", "lat": 30.5332, "lon": -91.1496, "tz": "America/Chicago"},
  "LBB": {"icao": "KLBB", "name": "Lubbock Preston Smith International Airport", "city": "Lubbock", "state": "TX", "lat": 33.6636, "lon": -101.8227, "tz": "America/Chicago"},
  "AMA": {"icao": "KAMA", "name": "Rick Husband Amarillo International Airport", "city": "Amarillo", "state": "TX", "lat": 35.2194, "lon": -101.7059, "tz": "America/Chicago"},
  "MAF": {"icao": "KMAF", "name": "Midland International Airport", "city": "Midland", "state": "TX", "lat": 31.9425, "lon": -102.2019, "tz": "America/Chicago"},
  "CRP": {"icao": "KCRP", "name": "Corpus Christi International Airport", "city": "Corpus Christi", "state": "TX", "lat": 27.7704, "lon": -97.5012, "tz": "America/Chicago"},
  "HOU": {"icao": "KHOU", "name": "William P. Hobby Airport", "city": "Houston", "state": "TX", "lat": 29.6454, "lon": -95.2789, "tz": "America/Chicago"},
  "DAL": {"icao": "KDAL", "name": "Dallas Love Field", "city": "Dallas", "state": "TX", "lat": 32.8471, "lon": -96.8518, "tz": "America/Chicago"}
}
